{"type":"FeatureCollection","features":[{"type":"Feature","geometry":{"type":"Point","coordinates":[-122.241666666667,44.1288888888889,0]},"properties":{"name":"Cougar Dam","description":"<br>Source: Wikipedia article <a href=\"https://en.wikipedia.org/wiki/List_of_dams_in_the_Columbia_River_watershed#cite_ref-CougarLake_221-0\">List of dams in the Columbia River watershed</a>"}},{"type":"Feature","geometry":{"type":"Point","coordinates":[-122.329722222222,44.1730555555555,0]},"properties":{"name":"Blue River Dam","description":"<br>Source: Wikipedia article <a href=\"https://en.wikipedia.org/wiki/List_of_dams_in_the_Columbia_River_watershed#cite_ref-CougarLake_221-1\">List of dams in the Columbia River watershed</a>"}},{"type":"Feature","geometry":{"type":"Point","coordinates":[-122.611944444444,44.1375,0]},"properties":{"name":"Leaburg Dam","description":"<br>Source: Wikipedia article <a href=\"https://en.wikipedia.org/wiki/List_of_dams_in_the_Columbia_River_watershed#cite_ref-Leaburg-Walterville_223-0\">List of dams in the Columbia River watershed</a>"}},{"type":"Feature","geometry":{"type":"Point","coordinates":[-117.839722222222,47.8372222222222,0]},"properties":{"name":"Long Lake Dam","description":"<br>Source: Wikipedia article <a href=\"https://en.wikipedia.org/wiki/List_of_dams_in_the_Columbia_River_watershed#cite_ref-LongLake_233-1\">List of dams in the Columbia River watershed</a>"}},{"type":"Feature","geometry":{"type":"Point","coordinates":[-117.917777777778,47.8325,0]},"properties":{"name":"Little Falls Dam","description":"<br>Source: Wikipedia article <a href=\"https://en.wikipedia.org/wiki/List_of_dams_in_the_Columbia_River_watershed#cite_ref-235\">List of dams in the Columbia River watershed</a>"}},{"type":"Feature","geometry":{"type":"Point","coordinates":[-122.109166666667,46.4663888888889,0]},"properties":{"name":"Cowlitz Falls Dam","description":"<br>Source: Wikipedia article <a href=\"https://en.wikipedia.org/wiki/List_of_dams_in_the_Columbia_River_watershed#cite_ref-Cow_238-0\">List of dams in the Columbia River watershed</a>"}},{"type":"Feature","geometry":{"type":"Point","coordinates":[-122.424722222222,46.5344444444444,0]},"properties":{"name":"Mossyrock Dam","description":"<br>Source: Wikipedia article <a href=\"https://en.wikipedia.org/wiki/List_of_dams_in_the_Columbia_River_watershed#cite_ref-Mossy_239-1\">List of dams in the Columbia River watershed</a>"}},{"type":"Feature","geometry":{"type":"Point","coordinates":[-122.588333333333,46.5027777777778,0]},"properties":{"name":"Mayfield Dam","description":"<br>Source: Wikipedia article <a href=\"https://en.wikipedia.org/wiki/List_of_dams_in_the_Columbia_River_watershed#cite_ref-May_240-1\">List of dams in the Columbia River watershed</a>"}},{"type":"Feature","geometry":{"type":"Point","coordinates":[-122.21,46.08,0]},"properties":{"name":"Swift Dam","description":"<br>Source: Wikipedia article <a href=\"https://en.wikipedia.org/wiki/List_of_dams_in_the_Columbia_River_watershed#cite_ref-LewisRPacificPower_241-0\">List of dams in the Columbia River watershed</a>"}},{"type":"Feature","geometry":{"type":"Point","coordinates":[-122.197777777778,46.0627777777778,0]},"properties":{"name":"Swift No. 2 Dam","description":"<br>Source: Wikipedia article <a href=\"https://en.wikipedia.org/wiki/List_of_dams_in_the_Columbia_River_watershed#cite_ref-Swift2_243-0\">List of dams in the Columbia River watershed</a>"}},{"type":"Feature","geometry":{"type":"Point","coordinates":[-122.34,45.98,0]},"properties":{"name":"Yale Dam","description":"<br>Source: Wikipedia article <a href=\"https://en.wikipedia.org/wiki/List_of_dams_in_the_Columbia_River_watershed#cite_ref-LewisRPacificPower_241-2\">List of dams in the Columbia River watershed</a>"}},{"type":"Feature","geometry":{"type":"Point","coordinates":[-122.48,45.99,0]},"properties":{"name":"Merwin Dam","description":"<br>Source: Wikipedia article <a href=\"https://en.wikipedia.org/wiki/List_of_dams_in_the_Columbia_River_watershed#cite_ref-LewisRPacificPower_241-3\">List of dams in the Columbia River watershed</a>"}},{"type":"Feature","geometry":{"type":"Point","coordinates":[-116.424444444444,50.8988888888889,0]},"properties":{"name":"Spillimacheen Dam","description":"<br>Source: Wikipedia article <a href=\"https://en.wikipedia.org/wiki/List_of_dams_in_the_Columbia_River_watershed#cite_ref-246\">List of dams in the Columbia River watershed</a>"}},{"type":"Feature","geometry":{"type":"Point","coordinates":[-120.722777777778,47.6163888888889,0]},"properties":{"name":"Tumwater Canyon Dam","description":"<br>Source: Wikipedia article <a href=\"https://en.wikipedia.org/wiki/List_of_dams_in_the_Columbia_River_watershed#cite_ref-TumCanyon_248-0\">List of dams in the Columbia River watershed</a>"}},{"type":"Feature","geometry":{"type":"Point","coordinates":[-120.0125,47.8344444444444,0]},"properties":{"name":"Lake Chelan Dam","description":"<br>Source: Wikipedia article <a href=\"https://en.wikipedia.org/wiki/List_of_dams_in_the_Columbia_River_watershed#cite_ref-Chelan_249-1\">List of dams in the Columbia River watershed</a>"}}]}